{
	"shop": [
	    {
			"id": "PM1",
			"name": "Pizza House",
			"des": "Homely Italian restaurant and takeaway with antipasti, pizzas, salads and pasta on the menu.",
			"address": "16-11-20/1/6, Saleem Nagar Colony, Malakpet Extension, Old Malakpet, Hyderabad, Telangana 500036",
			"hours": "Closes soon: 11PM , Opens 11AM Sat",
			"order": "francescospizzeria.com, swiggy.com, zomato.com, scootsy.com",
			"phone": "022 6743 7000"
		},


		{
			"id": "PM1",
			"name": "Eagle Boys Pizza",
			"des": "Simple outlet dishing up pizzas to eat in the simple cafe-style restaurant or order for delivery.",
			"address": "Road no. 12, MLA Colony, Next to Omega Hospital, Banjara Hills, Hyderabad, Telangana 500096",
			"hours": "Closes at 12PM ",
			"order" : "swiggy.com, zomato.com, scootsy.com",
			"phone": "99878798855"

		},


		{
			"id": "PM1",
			"name": "Midland Bakers ",
			"des" : "Simple destination preparing a range of Indianised pizzas and Italian favourites.",
			"address": "Plot No. 802 & 803 Ayyappa Central, 100 Ft Road, Opp. YSr Statue, Ayyappa Society, SBH Officers Colony, Mega Hills, Madhapur, Hyderabad, Telangana 500081",
			"hours": "open all time",
			"order": "swiggy.com, zomato.com, scootsy.com",
			"phone": "99878798855"

		},


		{
			"id": "PM1",
			"name": "Domino's Pizza",
			"des": "Fast food chain baking Tex-Mex inspired and classic pizzas, sides and garlic bread.",
			"address": "AGRR Arcade, Ground Floor, Plot No 4, Rajendra Nagar Circle, Attapur, Opp PVNR Express Way Pillar No 127, Hyderabad, Telangana 500048",
			"hours": "opens at 10am, closes at 12PM.",
			"order":"swiggy.com, zomato.com, scootsy.com",
			"phone": "99878798855"

		}


	]
}